City_ID,City,Lat,Lng,Max Temp,Humidity,Cloudiness,Wind Speed,Country,Date
0,kastsyukovichy,53.3516,32.0506,19.3,74,93,4.44,BY,1723032229
1,puerto natales,-51.7236,-72.4875,-6.75,93,20,3.09,CL,1723032230
2,birjand,32.8663,59.2211,39.26,2,0,7.2,IR,1723032231
3,papao,-17.75,-149.55,24.82,78,13,9.08,PF,1723032232
4,tshabong,-26.05,22.45,28.22,16,4,8.15,BW,1723032233
5,port-aux-francais,-49.35,70.2167,1.13,99,100,11.49,TF,1723032235
6,iqaluit,63.7506,-68.5145,5.85,86,75,0.0,CA,1723032236
7,az zulfi,26.2995,44.8154,41.86,8,27,5.93,SA,1723032238
8,kirensk,57.7853,108.1119,23.01,57,14,1.11,RU,1723032239
9,bontang,0.1333,117.5,27.6,76,86,1.56,ID,1723032240
10,college,64.8569,-147.8028,16.99,69,75,4.12,US,1723032241
11,grytviken,-54.2811,-36.5092,-6.04,68,98,3.08,GS,1723032243
12,yellowknife,62.456,-114.3525,11.9,82,20,3.09,CA,1723032244
13,papatowai,-46.5619,169.4708,8.13,79,100,2.55,NZ,1723032245
14,iwanai,42.9744,140.5089,23.23,97,56,0.88,JP,1723032247
15,sirte,31.2089,16.5887,35.18,37,29,5.77,LY,1723032248
16,badarpur,24.9,92.6,27.1,93,78,1.95,IN,1723032249
17,arraial do cabo,-22.9661,-42.0278,23.92,73,0,5.66,BR,1723032075
18,fereydun kenar,36.6864,52.5225,27.95,76,75,3.6,IR,1723032251
19,adamstown,-25.066,-130.1015,18.54,62,80,3.26,PN,1723032252
20,kudahuvadhoo,2.6708,72.8944,28.76,73,55,4.5,MV,1723032253
21,kodiak,57.79,-152.4072,12.73,94,100,1.54,US,1723032254
22,hermanus,-34.4187,19.2345,17.11,71,66,3.95,ZA,1723032255
23,port elizabeth,-33.918,25.5701,26.17,33,0,3.6,ZA,1723032130
24,sarina,-21.4333,149.2167,19.04,1,67,2.51,AU,1723032257
25,blackmans bay,-43.0167,147.3167,10.29,77,100,0.89,AU,1723032259
26,anadyr,64.75,177.4833,7.28,75,75,2.0,RU,1723032260
27,stanley,54.868,-1.6985,16.01,74,75,5.14,GB,1723032254
28,georgetown,5.4112,100.3354,29.97,62,20,2.24,MY,1723032103
29,portland,45.5234,-122.6762,14.78,87,0,1.34,US,1723031471
30,borogontsy,62.6683,131.1683,12.6,66,45,2.8,RU,1723032264
31,lompoc,34.6391,-120.4579,16.08,100,100,1.54,US,1723032205
32,baharly,38.4362,57.4316,41.9,7,1,7.39,TM,1723032266
33,coquimbo,-29.9533,-71.3436,10.85,82,100,2.57,CL,1723031596
34,thompson,55.7435,-97.8558,9.09,93,75,2.57,CA,1723032268
35,kapoeta,4.7717,33.5903,34.5,30,32,3.84,SS,1723032269
36,zhuanghe,39.7008,122.9911,24.69,87,99,0.53,CN,1723032270
37,bethel,41.3712,-73.414,17.23,89,100,2.57,US,1723032271
38,san pedro de macoris,18.4616,-69.2972,27.34,85,8,2.56,DO,1723032272
39,margaret river,-33.95,115.0667,14.25,61,70,7.04,AU,1723032273
40,pandan,14.0453,124.1694,28.28,82,76,3.67,PH,1723032274
41,codrington,-38.2667,141.9667,8.76,74,57,5.3,AU,1723032278
42,edinburgh of the seven seas,-37.0676,-12.3116,10.09,73,80,19.27,SH,1723032279
43,avarua,-21.2078,-159.775,23.03,78,84,3.6,CK,1723032280
44,wainwright,52.839,-110.8572,11.69,70,96,1.72,CA,1723032281
45,waitangi,-43.9535,-176.5597,8.79,73,0,5.43,NZ,1723032283
46,camocim,-2.9022,-40.8411,28.94,52,29,5.78,BR,1723032284
47,ambodifotatra,-16.9833,49.85,23.71,66,9,4.95,MG,1723032285
48,walvis bay,-22.9575,14.5053,15.53,72,0,2.57,NA,1723032287
49,hadibu,12.65,54.0333,28.22,67,69,10.37,YE,1723032288
50,selfoss,63.9331,-20.9971,13.36,64,28,0.52,IS,1723032289
51,howrah,22.5892,88.3103,29.0,84,75,6.17,IN,1723032290
52,remire-montjoly,4.9167,-52.2667,27.02,89,40,1.54,GF,1723032291
53,saipan,15.1355,145.701,28.39,83,40,0.0,MP,1723032292
54,whitehorse,60.7161,-135.0538,15.43,52,0,4.12,CA,1723032294
55,hamilton,39.1834,-84.5333,23.02,90,100,3.09,US,1723032261
56,teguise,29.0605,-13.564,25.12,54,20,8.75,ES,1723032298
57,albany,42.6001,-73.9662,17.23,83,100,1.47,US,1723032008
58,saldanha,-33.0117,17.9442,16.03,77,67,3.64,ZA,1723032300
59,vernon,50.2581,-119.2691,16.74,63,3,0.51,CA,1723032301
60,dunedin,-45.8742,170.5036,9.33,73,100,0.45,NZ,1723032302
61,nueva italia de ruiz,19.0167,-102.1,21.53,98,100,0.45,MX,1723032303
62,kristiansund,63.1115,7.732,24.36,73,0,2.06,NO,1723032304
63,shaowu,27.3409,117.4831,27.18,79,99,2.29,CN,1723032306
64,luderitz,-26.6481,15.1594,14.89,71,61,4.28,NA,1723032308
65,vorgashor,67.5833,63.95,17.85,39,5,4.8,RU,1723032309
66,vigan,17.5747,120.3869,27.29,85,11,3.26,PH,1723032310
67,'alaqahdari dishu,30.4374,63.313,43.0,7,0,4.14,AF,1723032311
68,kogalym,62.2654,74.4791,17.07,43,20,6.55,RU,1723032312
69,longyearbyen,78.2186,15.6401,9.91,100,75,3.09,SJ,1723032313
70,wenchang,30.904,118.4887,29.91,72,39,2.91,CN,1723032314
71,invercargill,-46.4,168.35,8.9,77,100,1.34,NZ,1723032316
72,sitka,57.0531,-135.33,13.94,88,100,0.0,US,1723032317
73,mongo,12.1844,18.693,30.04,57,95,4.94,TD,1723032318
74,timaru,-44.4,171.25,6.82,69,100,3.18,NZ,1723032319
75,punta arenas,-53.15,-70.9167,-2.94,93,20,1.54,CL,1723032306
76,ilulissat,69.2167,-51.1,4.01,100,100,0.51,GL,1723032321
77,zarghun shahr,32.8473,68.4457,32.11,20,0,4.8,AF,1723032322
78,pombas,17.1503,-25.0201,26.88,80,74,5.77,CV,1723032323
79,keflavik,64.0049,-22.5624,12.24,76,20,6.69,IS,1723032324
80,nabire,-3.3667,135.4833,23.57,93,100,1.47,ID,1723032326
81,bilibino,68.0546,166.4372,4.56,72,4,2.58,RU,1723032309
82,yakeshi,49.2833,120.7333,18.48,75,35,2.35,CN,1723032328
83,jiangyin,31.9282,120.3126,30.16,76,35,4.03,CN,1723032329
84,enewetak,11.3474,162.3373,28.27,80,95,4.76,MH,1723032330
85,bredasdorp,-34.5322,20.0403,18.74,55,71,2.77,ZA,1723032331
86,westport,41.1415,-73.3579,19.2,87,100,4.12,US,1723032333
87,ushuaia,-54.8,-68.3,-2.19,80,0,3.09,AR,1723032334
88,ola,59.5833,151.2833,11.35,86,100,1.09,RU,1723032335
89,itambacuri,-18.0311,-41.685,21.02,63,24,2.75,BR,1723032050
90,dauphin,51.1494,-100.0502,14.08,88,100,5.66,CA,1723032338
91,realico,-35.0366,-64.2447,5.43,47,0,6.16,AR,1723032340
92,mogadishu,2.0371,45.3438,28.93,79,75,7.2,SO,1723032341
93,kavaratti,10.5669,72.642,26.9,83,100,4.85,IN,1723032343
94,oberammergau,47.5981,11.0669,23.56,86,73,1.49,DE,1723032344
95,atafu village,-8.5421,-172.5159,28.47,75,99,8.32,TK,1723032345
96,bel ombre,-4.6167,55.4167,27.91,78,20,4.12,SC,1723032346
97,hassi messaoud,31.6804,6.0729,37.92,20,0,2.57,DZ,1723032347
98,ivins,37.1686,-113.6794,29.56,35,69,0.89,US,1723032348
99,polyarnyy,69.1989,33.4478,19.76,44,27,0.25,RU,1723032349
100,severodvinsk,64.5635,39.8302,22.06,56,14,4.83,RU,1723032059
101,al abyar,32.19,20.5965,36.18,19,0,6.9,LY,1723032351
102,newtown,-33.8984,151.1775,9.81,80,0,0.45,AU,1723032352
103,kapuskasing,49.4169,-82.4331,10.05,93,75,1.54,CA,1723032353
104,hithadhoo,-0.6,73.0833,28.93,68,100,3.05,MV,1723032114
105,saudarkrokur,65.7461,-19.6394,8.56,87,100,3.17,IS,1723032355
106,majalgaon,19.15,76.2333,28.04,72,96,4.71,IN,1723032356
107,taoudenni,22.6783,-3.9836,46.62,8,2,6.77,ML,1723032357
108,badger,64.8,-147.5333,16.95,64,75,4.12,US,1723032359
109,i-n-salah,27.1935,2.4607,41.76,10,0,8.77,DZ,1723032359
110,kapa'a,22.0752,-159.319,25.18,72,40,6.17,US,1723032361
111,zaragoza,41.6561,-0.8773,33.9,34,0,1.34,ES,1723032362
112,tomatlan,19.9333,-105.25,23.94,96,100,1.52,MX,1723032363
113,weining,26.85,104.2333,18.5,87,56,4.34,CN,1723032364
114,chilaw,7.5758,79.7953,29.01,82,76,6.45,LK,1723032365
115,tralee,52.2704,-9.7026,16.14,82,100,7.72,IE,1723032367
116,severo-yeniseyskiy,60.3725,93.0408,17.92,88,97,0.79,RU,1723032368
117,port alfred,-33.5906,26.891,24.48,31,69,1.82,ZA,1723032369
118,nuku'alofa,-21.1333,-175.2,20.19,77,20,4.12,TO,1723032370
119,cabo san lucas,22.8909,-109.9124,26.53,95,100,1.42,MX,1723032371
120,mbuji-mayi,-6.15,23.6,37.89,9,98,2.99,CD,1723032014
121,tazovsky,67.4667,78.7,12.02,61,83,6.47,RU,1723032373
122,tinajo,29.0788,-13.7081,26.49,54,20,8.75,ES,1723032374
123,lebu,-37.6167,-73.65,3.94,87,0,2.42,CL,1723032375
124,qaqortoq,60.7167,-46.0333,8.27,92,100,2.63,GL,1723032377
125,ruangwa,-10.0667,38.9333,33.49,17,1,2.43,TZ,1723032378
126,isafjordur,66.0755,-23.124,9.02,81,100,5.66,IS,1723032379
127,lorengau,-2.0226,147.2712,26.93,83,44,4.44,PG,1723032380
128,kingston,17.997,-76.7936,28.53,70,20,4.12,JM,1723032343
129,al kharijah,25.4514,30.5464,41.89,12,5,4.73,EG,1723032382
130,woodend,-43.3167,172.6667,9.98,71,91,4.0,NZ,1723032383
131,vilyuchinsk,52.9306,158.4028,14.15,90,100,1.84,RU,1723032385
132,mahibadhoo,3.7833,72.9667,27.86,78,78,4.74,MV,1723032386
133,kulhudhuffushi,6.6221,73.07,27.58,78,100,4.91,MV,1723032387
134,ribeira grande,38.5167,-28.7,26.22,65,20,6.26,PT,1723032388
135,kaliua,-5.0606,31.7936,32.7,16,45,2.91,TZ,1723032389
136,fort bragg,35.139,-79.006,25.11,94,100,4.63,US,1723032129
137,mirny,62.5353,113.9611,16.98,60,63,2.5,RU,1723032391
138,praia da vitoria,38.7333,-27.0667,25.42,73,20,3.34,PT,1723032392
139,debark',13.1561,37.8981,13.21,84,100,1.52,ET,1723032393
140,tiksi,71.6872,128.8694,7.67,93,60,2.38,RU,1723032394
141,tongliao,43.6125,122.2653,26.46,75,1,5.49,CN,1723032395
142,sydney,-33.8679,151.2073,10.13,88,0,0.45,AU,1723031661
143,burutu,5.3509,5.5076,28.97,62,77,6.65,NG,1723032397
144,talnakh,69.4865,88.3972,16.3,46,4,10.34,RU,1723032398
145,uturoa,-16.7333,-151.4333,26.03,80,7,7.45,PF,1723032399
146,timbuktu,16.7735,-3.0074,37.16,37,85,7.51,ML,1723032400
147,afaahiti,-17.75,-149.2833,23.93,83,20,8.29,PF,1723032401
148,manor,19.75,72.9167,28.76,78,97,5.63,IN,1723032402
149,north ward,-19.2454,146.8075,21.95,83,20,5.14,AU,1723032403
150,edmundston,47.3737,-68.3251,16.63,63,0,4.12,CA,1723032404
151,yuzhno-kurilsk,44.0306,145.8556,17.9,99,100,2.27,RU,1723032405
152,saint-philippe,-21.3585,55.7679,24.77,65,4,3.88,RE,1723032406
153,coari,-4.085,-63.1414,26.59,53,48,1.15,BR,1723032407
154,dadukou,26.5479,101.7054,27.12,69,43,1.68,CN,1723032409
155,ust-nera,64.5667,143.2,11.46,92,100,2.35,RU,1723032410
156,naze,28.3667,129.4833,27.4,83,36,0.59,JP,1723032411
157,bodo,67.28,14.405,24.41,43,0,4.63,NO,1723032412
158,fale old settlement,-9.3852,-171.2468,27.47,77,53,8.93,TK,1723032413
159,fortuna,40.5982,-124.1573,9.51,97,0,3.09,US,1723032414
160,wenling,28.3669,121.36,27.9,86,99,1.68,CN,1723032415
161,alo,6.5486,4.2686,25.67,79,100,3.55,NG,1723032416
162,puerto ayora,-0.7393,-90.3518,18.08,99,91,3.58,EC,1723032417
163,touros,-5.1989,-35.4608,26.19,76,69,7.06,BR,1723032418
164,smithers,54.7804,-127.1743,13.04,76,0,0.56,CA,1723032419
165,tindouf,27.6711,-8.1474,43.24,7,3,2.55,DZ,1723032420
166,udachny,66.4167,112.4,16.92,46,48,3.36,RU,1723032422
167,kalawit,8.0667,122.5167,26.47,87,98,0.71,PH,1723032423
168,ketchikan,55.3422,-131.6461,14.26,94,100,2.57,US,1723032174
169,sumbawa besar,-8.5,117.4333,24.14,74,5,2.03,ID,1723032425
170,tchintabaraden,15.8969,5.7985,33.21,38,100,8.27,NE,1723032426
171,igarka,67.4667,86.5833,17.7,50,13,8.04,RU,1723032427
172,west island,-12.1568,96.8225,26.99,83,75,5.14,CC,1723032428
173,nizhneudinsk,54.9076,99.0276,17.58,89,98,0.76,RU,1723032429
174,den burg,53.0542,4.7972,22.2,64,53,5.14,NL,1723032430
175,gizo,-8.103,156.8419,27.46,80,48,5.8,SB,1723032431
176,inirida,3.8653,-67.9239,24.55,88,38,1.14,CO,1723032434
177,hasaki,35.7333,140.8333,27.22,89,98,1.57,JP,1723032435
178,kruisfontein,-34.0033,24.7314,24.94,17,95,4.65,ZA,1723032436
179,cascais,38.6979,-9.4215,28.62,61,20,7.72,PT,1723032437
180,utrik,11.2278,169.8474,28.24,80,89,7.05,MH,1723032438
181,talcahuano,-36.7167,-73.1167,1.82,100,20,2.06,CL,1723032439
182,vyazemskiy,47.5378,134.7525,20.75,97,100,1.76,RU,1723032440
183,chernyshevsk,52.5243,117.0174,18.68,61,21,0.73,RU,1723032441
184,ain sefra,32.75,-0.5833,36.39,13,76,9.46,DZ,1723032442
185,bangar,16.8936,120.4243,27.01,86,71,2.31,PH,1723032443
186,sao jose da coroa grande,-8.8978,-35.1478,24.64,69,73,5.14,BR,1723032444
187,hawaiian paradise park,19.5933,-154.9731,21.73,96,100,2.06,US,1723032445
188,tura,25.5198,90.2201,26.11,95,61,2.39,IN,1723032446
189,constitucion,-35.3333,-72.4167,4.21,87,0,3.53,CL,1723032447
190,porto novo,6.4965,2.6036,24.96,81,100,4.27,BJ,1723032448
191,port-vila,-17.7338,168.3219,17.78,94,20,1.54,VU,1723032449
192,mouila,-1.8685,11.0559,34.27,39,92,0.86,GA,1723032450
193,turpan,42.9333,89.1667,32.05,27,100,7.58,CN,1723032451
194,waddan,29.1614,16.139,40.36,11,7,2.11,LY,1723032452
195,tangalle,6.024,80.7911,35.09,69,79,6.83,LK,1723032453
196,benghazi,32.1167,20.0667,30.67,53,0,5.41,LY,1723032454
197,vorkuta,67.5,64.0,17.96,40,5,4.8,RU,1723032456
198,richmond,37.5538,-77.4603,24.96,94,100,2.06,US,1723032412
199,jieshi,22.8134,115.8257,29.13,84,8,4.76,CN,1723032458
200,djibo,14.1022,-1.6306,30.03,59,100,6.86,BF,1723032459
201,boa vista,2.8197,-60.6733,25.99,83,40,3.09,BR,1723032321
202,enniskillen,54.3461,-7.6413,16.32,73,96,4.22,GB,1723032464
203,sierra grande,-41.606,-65.3557,3.77,85,100,11.86,AR,1723032465
204,tamanrasset,22.785,5.5228,34.92,10,0,5.85,DZ,1723032466
205,cooma,-36.2333,149.1333,4.91,85,65,0.99,AU,1723032467
206,lihue,21.9789,-159.3672,24.77,72,40,6.17,US,1723032468
207,aliveri,38.4167,24.0333,35.72,38,0,6.03,GR,1723032469
208,wailua homesteads,22.0669,-159.378,24.44,72,40,6.17,US,1723032471
209,puerto deseado,-47.7503,-65.8938,2.54,67,99,3.93,AR,1723032472
210,nizhnesortymskiy,62.4397,71.7603,17.61,45,23,6.21,RU,1723032473
211,fort st. john,56.2499,-120.8529,9.05,89,6,1.13,CA,1723032475
212,luganville,-15.5333,167.1667,23.56,70,84,4.82,VU,1723032193
213,aasiaat,68.7098,-52.8699,4.11,90,100,1.08,GL,1723032477
214,kilindoni,-7.9139,39.6668,25.8,72,91,7.31,TZ,1723032478
215,kolonia town,6.964,158.206,28.81,69,100,1.55,FM,1723032479
216,maintirano,-18.0667,44.0167,26.45,65,5,6.22,MG,1723032480
217,manokwari,-0.8667,134.0833,27.11,78,4,4.63,ID,1723032481
218,ustyuzhna,58.8394,36.4321,19.39,72,100,3.83,RU,1723032483
219,jamestown,42.097,-79.2353,17.79,79,75,2.68,US,1723032273
220,laguna,38.421,-121.4238,23.03,58,0,1.54,US,1723032485
221,vila franca do campo,37.7167,-25.4333,24.23,77,71,2.34,PT,1723032486
222,olonkinbyen,70.9221,-8.7187,4.97,99,100,5.17,SJ,1723032487
223,margate,51.3813,1.3862,23.16,54,48,0.45,GB,1723032245
224,port saint john's,-31.6229,29.5448,24.53,48,2,4.1,ZA,1723032489
225,murashi,59.3999,48.9615,16.78,73,100,4.01,RU,1723032491
226,port mathurin,-19.6833,63.4167,22.72,72,2,4.08,MU,1723032492
227,mendi,-6.1761,143.6513,14.25,99,89,0.47,PG,1723032493
228,lazaro cardenas,17.9583,-102.2,26.07,84,98,1.93,MX,1723032494
229,mili,6.0815,171.735,25.47,91,100,3.87,MH,1723032497
230,flin flon,54.7682,-101.865,6.58,79,31,3.84,CA,1723032500
231,san luis de la loma,17.2706,-100.8939,25.76,85,100,1.9,MX,1723032502
232,kununurra,-15.7667,128.7333,23.99,53,77,2.57,AU,1723032503
233,ad dawadimi,24.5077,44.3924,38.64,10,71,6.56,SA,1723032504
234,tidjikja,18.5564,-11.4271,31.45,45,98,4.66,MR,1723032505
235,dudinka,69.4058,86.1778,16.79,42,0,9.08,RU,1723032506
236,richards bay,-28.783,32.0377,26.68,39,0,6.77,ZA,1723032507
237,pula,44.8683,13.8481,32.31,48,0,3.6,HR,1723032509
238,buala,-8.145,159.5921,26.52,82,73,3.86,SB,1723032510
239,zhezqazghan,47.7833,67.7667,37.32,18,40,6.0,KZ,1723032512
240,ingeniero jacobacci,-41.3427,-69.5448,-0.48,81,56,3.22,AR,1723032513
241,mashhad,36.297,59.6062,37.08,20,0,5.14,IR,1723032454
242,kamachumu,-1.6186,31.62,25.55,34,31,4.31,TZ,1723032516
243,ataq,14.5377,46.8319,34.98,27,93,4.16,YE,1723032517
244,ati,13.2154,18.3353,31.77,49,92,6.17,TD,1723032518
245,vadso,70.0744,29.7487,26.49,37,0,4.63,NO,1723032520
246,inyonga,-6.7167,32.0667,31.42,16,7,2.39,TZ,1723032521
247,namibe,-15.1961,12.1522,23.87,63,45,4.72,AO,1723032522
248,kindu,-2.95,25.95,39.51,13,13,1.47,CD,1723032476
249,sansanne-mango,10.3592,0.4708,28.79,65,100,4.06,TG,1723032524
250,saedinenie,42.2667,24.55,30.99,29,20,4.12,BG,1723032525
251,betio village,1.358,172.9211,28.02,67,73,3.01,KI,1723032527
252,glen innes,-29.7333,151.7333,6.99,96,91,3.29,AU,1723032529
253,nuevo laredo,27.4763,-99.5164,27.15,74,0,2.57,MX,1723032304
254,sefaatli,39.5043,34.7563,30.75,24,20,5.6,TR,1723032531
255,dien bien phu,21.3833,103.0167,26.87,79,78,0.31,VN,1723032533
256,vila velha,-20.3297,-40.2925,23.97,78,20,2.57,BR,1723032506
257,fada,7.25,4.0667,26.77,75,100,2.64,NG,1723032535
258,labrador city,52.9463,-66.9114,5.59,95,100,4.31,CA,1723032536
259,crane,31.3974,-102.3501,26.61,45,0,2.1,US,1723032539
260,holualoa,19.6228,-155.9522,21.97,90,6,1.4,US,1723032540
261,lianshan,40.7643,120.8533,24.7,90,100,2.77,CN,1723032541
262,greenville,35.6127,-77.3663,25.09,99,100,2.57,US,1723032478
263,mazatlan,23.2167,-106.4167,26.06,87,40,1.54,MX,1723032543
264,shingu,33.7333,135.9833,26.67,90,20,1.44,JP,1723032544
265,el tigre,8.8875,-64.2454,24.84,85,44,3.88,VE,1723032545
266,kimbe,-5.5502,150.1429,24.75,93,100,2.32,PG,1723032546
267,durant,33.994,-96.3708,25.58,70,0,0.0,US,1723032496
268,strezhevoy,60.7333,77.5889,18.84,37,21,3.69,RU,1723032548
269,ponta delgada,37.7333,-25.6667,24.4,73,40,5.14,PT,1723032549
270,mbekenyera,-10.0,38.9833,33.71,17,1,2.29,TZ,1723032550
271,kenai,60.5544,-151.2583,13.41,96,100,2.57,US,1723032552
272,agneaux,49.119,-1.1061,22.23,45,40,5.54,FR,1723032553
273,kayenta,36.7278,-110.2546,24.09,43,93,1.75,US,1723032555
274,aykhal,66.0,111.5,16.62,47,74,2.93,RU,1723032556
275,vila do maio,15.1333,-23.2167,30.44,83,99,5.6,CV,1723032557
276,petrolina,-9.3986,-40.5008,26.03,57,20,6.17,BR,1723032374
277,port lincoln,-34.7333,135.8667,13.25,58,48,5.06,AU,1723032560
278,khenifra,32.9333,-5.6667,34.51,16,0,4.65,MA,1723032561
279,tambuwal,12.4039,4.6469,26.54,78,100,6.53,NG,1723032562
280,new norfolk,-42.7826,147.0587,10.95,85,100,1.27,AU,1723032563
281,ngaoundere,7.3167,13.5833,22.73,75,98,4.01,CM,1723032509
282,ocos,14.5094,-92.1933,26.1,82,99,2.34,GT,1723032565
283,weno,7.4515,151.8468,27.97,78,75,2.06,FM,1723032566
284,celestun,20.8667,-90.4,25.44,87,90,2.67,MX,1723032567
285,syas'stroy,60.1367,32.5691,20.57,64,68,3.38,RU,1723032568
286,alta,69.9689,23.2717,25.59,27,0,5.14,NO,1723032569
287,quatre cocos,-20.2078,57.7625,25.04,57,3,5.65,MU,1723032570
288,bavly,54.393,53.2602,24.01,53,53,1.31,RU,1723032360
289,tavda,58.0425,65.2726,13.97,92,100,1.61,RU,1723032573
290,ghanzi,-21.5667,21.7833,30.36,13,0,4.56,BW,1723032574
291,rio grande,-32.035,-52.0986,17.06,89,100,4.98,BR,1723032348
292,saint augustine beach,29.8505,-81.2654,27.27,88,75,4.63,US,1723032577
293,mount gambier,-37.8333,140.7667,7.75,86,76,2.78,AU,1723032578
294,kerbakhiar,40.1067,46.0383,20.76,76,10,2.82,AZ,1723032579
295,petropavlovsk-kamchatsky,53.0452,158.6483,12.88,92,100,2.31,RU,1723032580
296,port augusta,-32.5,137.7667,11.57,55,22,4.11,AU,1723032581
297,al ghayzah,16.2079,52.176,27.98,77,74,7.11,YE,1723032583
298,faya-largeau,17.9257,19.1043,36.5,33,100,3.55,TD,1723032584
299,guerrero negro,27.9769,-114.0611,22.62,73,17,0.68,MX,1723032585
300,as sulayyil,20.4607,45.5779,42.14,15,98,4.55,SA,1723032586
301,kidal,18.4411,1.4078,38.97,20,69,4.91,ML,1723032357
302,el bagre,7.5927,-74.8086,22.99,99,100,0.24,CO,1723032589
303,ta`u,-14.2336,-169.5144,25.12,81,85,9.05,AS,1723032590
304,bathsheba,13.2167,-59.5167,29.34,74,40,7.2,BB,1723032591
305,neiafu,-18.65,-173.9833,21.38,64,20,0.0,TO,1723032592
306,arfoud,31.4348,-4.2375,40.7,7,24,2.23,MA,1723032593
307,jutai,-5.1833,-68.9,25.34,75,70,0.69,BR,1723032594
308,gunjur,13.2019,-16.7339,28.05,79,94,6.31,GM,1723032595
309,adre,13.4667,22.2,28.3,56,100,7.94,TD,1723032596
310,malango,-2.9627,119.9001,19.28,100,76,1.12,ID,1723032597
311,port blair,11.6667,92.75,28.02,89,75,1.03,IN,1723032448
312,kasongo-lunda,-6.4667,16.8167,38.05,13,83,2.32,CD,1723032600
313,nagqu,31.5,92.0,13.04,59,88,5.14,CN,1723032601
314,puerto baquerizo moreno,-0.9,-89.6,19.65,80,82,5.92,EC,1723032602
315,labytnangi,66.6572,66.4183,18.37,42,10,1.54,RU,1723032603
316,cheongsong gun,36.4335,129.057,23.06,93,19,1.0,KR,1723032604
317,koungheul,13.9833,-14.8,30.4,67,100,4.17,SN,1723032606
318,caleta de carquin,-11.0925,-77.6267,16.0,86,75,3.5,PE,1723032607
319,zunyi,27.6867,106.9072,24.61,87,68,3.3,CN,1723032608
320,sheridan,44.8333,-106.9173,16.28,85,0,1.54,US,1723032609
321,"laikit, laikit ii (dimembe)",1.4792,124.9735,24.47,89,40,0.51,ID,1723032613
322,kemijarvi,66.7131,27.4306,21.79,31,24,2.32,FI,1723032615
323,farmville,37.3021,-78.3919,24.51,100,100,0.0,US,1723032617
324,yeppoon,-23.1333,150.7333,17.88,88,96,4.21,AU,1723032469
325,chonchi,-42.6128,-73.8092,1.18,97,18,0.43,CL,1723032620
326,colonia,50.9333,6.95,22.13,77,75,6.69,DE,1723032622
327,hobyo,5.3505,48.5268,27.23,71,21,11.74,SO,1723032623
328,marsh harbour,26.5412,-77.0636,28.01,77,88,6.8,BS,1723032624
329,narvik,68.4384,17.4272,26.88,44,1,2.92,NO,1723032625
330,san juan,-31.5375,-68.5364,7.11,61,100,3.49,AR,1723032380
331,acarau,-2.8856,-40.12,28.76,51,85,7.34,BR,1723032628
332,battagram,34.6772,73.0233,28.35,72,50,1.89,PK,1723032629
333,maragogi,-9.0122,-35.2225,24.24,72,83,4.61,BR,1723032630
334,portstewart,55.1813,-6.714,16.83,67,86,7.87,GB,1723032631
335,puerto lempira,15.2667,-83.7667,26.86,87,100,3.2,HN,1723032632
336,jumla,29.2747,82.1838,16.42,92,100,0.4,NP,1723032633
337,lata,40.1629,-8.3327,29.16,53,19,2.8,PT,1723032635
338,illizi,26.4833,8.4667,38.33,15,0,1.9,DZ,1723032636
339,tsiombe,-25.3,45.4833,22.47,64,80,6.26,MG,1723032637
340,inhambane,-23.865,35.3833,23.66,58,24,4.51,MZ,1723032638
341,mapimi,25.8167,-103.85,23.47,51,100,1.59,MX,1723032639
342,saint-pierre,-21.3393,55.4781,24.82,57,0,4.63,RE,1723032640
343,mugia,43.1041,-9.2179,24.53,72,49,9.19,ES,1723032641
344,daru,-9.0763,143.2092,24.32,88,92,6.09,PG,1723032642
345,petra,30.3222,35.4793,28.55,12,1,4.33,JO,1723032644
346,kayangel,8.0823,134.7173,29.28,76,98,5.46,PW,1723032647
347,valparaiso,-33.0393,-71.6273,7.86,93,20,2.57,CL,1723032648
348,huilong,31.8111,121.655,28.45,87,43,5.55,CN,1723032650
349,mahanoro,-19.9,48.8,24.67,63,37,3.41,MG,1723032651
350,arkhangel'sk,64.5401,40.5433,22.06,40,0,4.0,RU,1723032652
351,hami,42.8,93.45,33.91,18,100,8.01,CN,1723032654
352,chinnachowk,14.4752,78.8354,29.01,70,75,5.14,IN,1723032655
353,lamia,38.9,22.4333,33.82,38,12,4.02,GR,1723032549
354,nova sintra,14.8667,-24.7167,26.36,80,31,6.65,CV,1723032659
355,baiyin,36.5583,104.2081,27.57,31,97,3.35,CN,1723032660
356,east london,-33.0153,27.9116,22.05,35,35,3.96,ZA,1723032661
357,bereket,39.2446,55.5154,41.83,15,13,2.18,TM,1723032615
358,yarmouth,41.7057,-70.2286,17.21,94,100,6.26,US,1723032663
359,halifax,44.6453,-63.5724,16.94,95,100,1.34,CA,1723032198
360,tallkayf,36.4894,43.1192,43.96,8,0,2.62,IQ,1723032665
361,cherepovets,59.1333,37.9,17.9,94,75,2.0,RU,1723032666
362,liuhe,42.2401,125.7172,21.59,93,100,0.93,CN,1723032668
363,shenjiamen,29.9576,122.298,27.48,88,100,3.37,CN,1723032669
364,st. john's,47.5649,-52.7093,19.6,77,100,3.58,CA,1723032523
365,pertuis,43.6925,5.5028,34.59,24,76,4.51,FR,1723032671
366,ciudad lazaro cardenas,17.9583,-102.2,26.07,84,98,1.93,MX,1723032672
367,la passe,45.5549,-0.8967,25.57,48,49,4.49,FR,1723032673
368,bir hadaj,31.0263,34.7031,34.73,24,0,4.16,IL,1723032674
369,horta,38.5333,-28.6333,25.8,75,20,6.26,PT,1723032464
370,gorredijk,53.0066,6.064,23.33,63,92,4.6,NL,1723032678
371,gisborne,-38.6533,178.0042,6.47,88,1,3.71,NZ,1723032679
372,carnarvon,-24.8667,113.6333,19.87,82,5,4.87,AU,1723032682
373,copiapo,-27.3667,-70.3333,10.24,83,81,1.0,CL,1723032331
374,guangyuan,32.442,105.823,26.26,88,98,0.55,CN,1723032684
375,sabzevar,36.2126,57.6819,40.65,8,0,6.49,IR,1723032685
376,susuman,62.7833,148.1667,9.47,80,100,1.67,RU,1723032686
377,qarauyl,48.9451,79.255,31.14,21,54,0.23,KZ,1723032688
378,mishkovo-pohorilove,46.9995,32.118,31.9,24,70,4.24,UA,1723032689
379,anton lizardo,19.05,-95.9833,25.12,87,100,1.76,MX,1723032690
380,golhisar,37.1459,29.5088,33.36,21,0,4.11,TR,1723032691
381,howard springs,-12.497,131.047,25.95,76,50,2.13,AU,1723032693
382,east ballina,-28.8667,153.5833,11.56,67,70,3.62,AU,1723032694
383,sursk,53.0754,45.6846,26.93,37,47,3.23,RU,1723032695
384,sechura,-5.5569,-80.8222,17.25,82,50,4.46,PE,1723032696
385,karratha,-20.7377,116.8463,22.49,47,2,3.35,AU,1723032697
386,egilsstadir,65.2653,-14.3948,10.95,76,75,3.6,IS,1723032698
387,gadzhiyevo,69.2551,33.3362,20.52,43,23,0.7,RU,1723032699
388,eatonton,33.3268,-83.3885,25.6,87,87,3.72,US,1723032700
389,brookings,44.3114,-96.7984,15.19,95,0,4.63,US,1723032702
390,arraias,-12.9288,-46.9437,23.47,40,0,3.78,BR,1723032705
391,kone,-21.0595,164.8658,19.17,73,85,1.72,NC,1723032706
392,moorhead,46.8739,-96.7676,17.98,80,20,5.14,US,1723032707
393,noumea,-22.2763,166.4572,21.67,99,82,4.65,NC,1723032708
394,tlahualilo de zaragoza,26.1167,-103.45,24.27,54,100,1.27,MX,1723032709
395,murudeshwara,14.0943,74.4845,27.78,60,100,2.04,IN,1723032710
396,qusmuryn,52.4503,64.6311,25.99,54,59,3.65,KZ,1723032711
397,la leonesa,-27.0379,-58.7035,17.08,96,100,2.14,AR,1723032462
398,mahina,-17.5065,-149.489,24.87,73,20,4.12,PF,1723032713
399,tarazona de la mancha,39.2123,-1.9491,35.96,14,4,3.34,ES,1723032714
400,bodaybo,57.8506,114.1933,20.92,66,6,1.5,RU,1723032715
401,minas de marcona,-15.2119,-75.1103,9.26,95,88,7.36,PE,1723032717
402,xai-xai,-25.0519,33.6442,24.8,46,0,4.1,MZ,1723032718
403,horsham,51.064,-0.3272,21.25,60,40,6.17,GB,1723032448
404,kasongo,-4.45,26.6667,37.78,11,38,2.78,CD,1723032720
405,kenora,49.8167,-94.4337,18.54,72,75,6.69,CA,1723032721
406,nogliki,51.8333,143.1667,15.36,97,100,2.56,RU,1723032722
407,saguenay,48.4168,-71.0657,13.93,72,66,1.34,CA,1723032428
408,nizhnyaya tavda,57.6731,66.1725,15.61,77,100,2.67,RU,1723032724
409,gosaba,22.165,88.7998,28.89,81,100,5.42,IN,1723032725
410,glace bay,46.1969,-59.957,20.09,85,75,5.14,CA,1723032726
411,leua,48.2156,18.6071,31.39,32,69,2.81,SK,1723032727
412,sars,56.5502,57.1366,19.77,87,61,3.18,RU,1723032729
413,lugoj,45.6886,21.9031,29.89,24,4,3.36,RO,1723032730
414,haiku-pauwela,20.9219,-156.3051,24.47,86,0,6.69,US,1723032731
415,franceville,-1.6333,13.5836,37.45,25,50,1.63,GA,1723032732
416,iskateley,67.6803,53.1512,19.05,43,8,3.97,RU,1723032733
417,rodolfo sanchez taboada,31.7167,-116.5667,19.5,78,21,0.89,MX,1723032734
418,san andres,12.5847,-81.7006,28.01,83,40,5.14,CO,1723032735
419,la'ie,21.6477,-157.9253,25.25,80,56,2.68,US,1723032736
420,xiongzhou,25.1167,114.3,28.98,71,34,1.45,CN,1723032737
421,al fulah,11.7329,28.3579,31.17,49,56,6.31,SD,1723032738
422,kailua-kona,19.6406,-155.9956,24.04,92,3,1.8,US,1723032567
423,kizhinga,51.8462,109.9097,16.74,78,55,1.06,RU,1723032740
424,norilsk,69.3535,88.2027,16.5,47,4,9.8,RU,1723032742
425,raahe,64.6833,24.4833,22.05,51,5,2.6,FI,1723032450
426,tolanaro,-25.0319,46.9987,23.04,73,75,6.17,MG,1723032745
427,nouadhibou,20.931,-17.0347,20.37,93,3,7.89,MR,1723032746
428,bush,29.1482,31.1273,39.25,17,0,5.08,EG,1723032747
429,tubarjal,30.4999,38.216,37.64,10,0,4.26,SA,1723032748
430,bandarbeyla,9.4942,50.8122,28.92,67,14,14.08,SO,1723032749
431,rouissat,31.9243,5.3502,38.84,17,0,2.35,DZ,1723032750
432,lochbuie,40.0072,-104.7161,22.81,72,20,3.6,US,1723032751
433,tibiri,13.5627,7.0485,28.19,78,40,4.12,NE,1723032752
434,lanivtsi,49.8633,26.0908,24.47,48,21,3.51,UA,1723032753
435,gebeit,21.0667,36.3167,29.21,55,96,4.68,SD,1723032754
436,meulaboh,4.1363,96.1285,26.08,85,87,3.73,ID,1723032755
437,alofi,-19.0595,-169.9187,20.94,64,75,3.6,NU,1723032757
438,chingirlau,51.095,54.0814,28.05,44,40,0.66,KZ,1723032758
439,shagonar,51.5333,92.8,23.02,42,12,1.61,RU,1723032759
440,bria,6.5423,21.9863,21.02,98,100,2.0,CF,1723032760
441,miracema do tocantins,-9.5618,-48.3967,27.6,26,1,4.09,BR,1723032762
442,bechar,31.6167,-2.2167,38.18,10,11,5.66,DZ,1723032763
443,irymple,-34.25,142.1667,8.94,74,2,4.51,AU,1723032764
444,oroqen zizhiqi,50.5667,123.7167,14.68,95,49,1.74,CN,1723032765
445,abasha,42.2096,42.2211,30.12,45,7,6.87,GE,1723032766
446,nanakuli,21.3906,-158.1547,25.25,73,100,0.0,US,1723032767
447,newman,37.3138,-121.0208,23.49,27,1,1.1,US,1723032768
448,san antonio de pale,-1.4014,5.6325,22.59,80,99,5.14,GQ,1723032769
449,bonthe,7.5264,-12.505,26.41,75,100,4.44,SL,1723032770
450,paciran,-6.8767,112.3761,26.98,81,25,4.87,ID,1723032771
451,hotan,37.0997,79.9269,34.64,10,56,9.46,CN,1723032772
452,alice springs,-23.7,133.8833,14.75,47,0,2.57,AU,1723032774
453,agat village,13.3886,144.6585,29.06,80,0,2.06,GU,1723032776
454,galesong,-5.3166,119.3661,28.01,75,44,0.96,ID,1723032777
455,kiwira,-9.1667,33.5333,26.26,27,0,3.82,TZ,1723032778
456,al bawiti,28.3492,28.8659,38.21,17,0,4.04,EG,1723032779
457,sakaiminato,35.55,133.2333,26.99,78,20,2.57,JP,1723032780
458,chandbali,20.7833,86.7667,29.66,73,92,4.72,IN,1723032781
459,muroto-misakicho,33.2833,134.15,28.8,80,49,2.05,JP,1723032782
460,brandon,27.9378,-82.2859,30.18,88,40,3.09,US,1723032758
461,delta del tigre,-34.7633,-56.3853,11.06,87,100,6.69,UY,1723032784
462,rakops,-21.0167,24.3333,30.88,12,0,4.13,BW,1723032785
463,shache,38.4167,77.2406,34.38,13,0,1.24,CN,1723032786
464,vallenar,-28.5708,-70.7581,8.11,86,69,0.84,CL,1723032787
465,callao,-12.0667,-77.15,15.95,88,100,2.06,PE,1723032788
466,brisas de zicatela,15.8369,-97.0419,25.65,84,69,2.23,MX,1723032789
467,tefe,-3.3542,-64.7114,27.06,69,0,0.0,BR,1723032790
468,wotho,10.1657,166.0102,28.17,75,41,2.35,MH,1723032791
469,sao vicente,-23.9631,-46.3919,28.48,26,0,1.71,BR,1723032792
470,northam,51.0333,-4.2167,19.23,82,59,8.11,GB,1723032794
471,saida,34.8303,0.1517,35.88,11,51,5.75,DZ,1723032795
472,soanierana ivongo,-16.9167,49.5833,26.01,61,11,3.59,MG,1723032796
473,aras-asan,8.8908,126.3033,27.43,82,93,3.09,PH,1723032797
474,jianshui,23.6363,102.8264,21.72,88,73,2.13,CN,1723032798
475,karukh,34.4811,62.5863,33.67,9,0,12.32,AF,1723032799
476,mar del plata,-38.0023,-57.5575,9.41,96,100,5.14,AR,1723032272
477,alto araguaia,-17.3147,-53.2153,23.91,34,1,3.74,BR,1723032801
478,nantucket,41.2835,-70.0995,17.03,88,100,6.69,US,1723032709
479,cabrobo,-8.5142,-39.31,24.37,57,80,7.55,BR,1723032803
480,mount pearl,47.5166,-52.7813,19.14,76,75,7.2,CA,1723032804
481,rongelap,11.1635,166.8941,28.46,77,48,3.63,MH,1723032807
482,sisimiut,66.9395,-53.6735,7.42,86,100,3.72,GL,1723032808
483,taungdwingyi,20.0167,95.55,25.47,92,81,3.11,MM,1723032809
484,hammerfest,70.6634,23.6821,25.25,38,0,4.12,NO,1723032810
485,altai,46.3722,96.2583,19.93,26,100,2.98,MN,1723032811
486,khromtau,50.2503,58.4347,31.2,29,80,5.88,KZ,1723032812
487,nemuro,43.3236,145.575,17.89,100,100,3.59,JP,1723032813
488,chopinzinho,-25.8558,-52.5233,18.56,59,91,2.94,BR,1723032814
489,kaluga,54.5,35.5,17.17,85,99,0.47,RU,1723032815
490,saraykent,39.6936,35.5111,28.58,30,58,3.93,TR,1723032816
491,pingdingshan,33.7385,113.3012,28.68,82,70,1.9,CN,1723032817
492,gejiu,23.306,103.1635,17.33,89,68,1.45,CN,1723032818
493,khandyga,62.6667,135.6,12.23,89,58,1.54,RU,1723032819
494,esikhaleni,-28.871,31.8996,26.64,40,0,7.17,ZA,1723032820
495,calatayud,41.3535,-1.6432,32.35,35,0,3.25,ES,1723032785
496,cockburn town,21.4612,-71.1419,27.95,82,100,7.41,TC,1723032822
497,rosarito,32.3333,-117.0333,20.82,83,32,2.35,MX,1723032602
498,cooper's town,26.8667,-77.5167,28.68,74,50,7.77,BS,1723032825
499,minzhu,43.7286,127.3447,21.88,87,1,0.75,CN,1723032826
500,murcki,50.2004,19.0435,26.8,71,70,2.22,PL,1723032827
501,sarangani,5.4033,125.4636,28.75,74,100,4.41,PH,1723032828
502,senador guiomard,-10.1522,-67.7392,22.86,63,13,1.11,BR,1723032829
503,motilla del palancar,39.5709,-1.9068,34.78,25,10,1.34,ES,1723032830
504,pontes e lacerda,-15.2261,-59.3353,25.39,35,0,1.64,BR,1723032831
505,tromso,69.6496,18.957,25.01,38,0,6.17,NO,1723032832
506,alvear,-29.0968,-56.5504,15.73,96,100,3.47,AR,1723032833
507,mont-laurier,46.5501,-75.4993,12.79,68,18,1.4,CA,1723032747
508,ulsteinvik,62.3432,5.8487,18.51,94,98,1.34,NO,1723032835
509,al miqdadiyah,33.9786,44.9369,45.66,8,0,4.22,IQ,1723032836
510,constantia,44.1833,28.65,26.38,56,42,4.84,RO,1723032684
511,estherville,43.4016,-94.8328,14.15,94,0,2.06,US,1723032588
512,diawara,15.022,-12.5437,30.6,62,100,4.2,SN,1723032839
513,marion,39.7684,-86.1555,20.88,93,100,4.63,US,1723032772
514,whitecourt,54.1502,-115.6855,10.58,93,75,2.06,CA,1723032842
515,santa ana,33.7456,-117.8678,22.37,90,0,0.0,US,1723032843
516,umluj,25.0213,37.2685,34.8,47,8,5.16,SA,1723032844
517,bubaque,11.2833,-15.8333,26.43,84,94,6.74,GW,1723032845
518,arar,30.9753,41.0381,42.01,8,0,0.0,SA,1723032846
519,chui,-33.6971,-53.4616,14.33,89,100,4.67,UY,1723032847
520,lakatoro,-16.0999,167.4164,22.89,75,68,5.88,VU,1723032848
521,bom jesus,-9.0744,-44.3586,27.19,40,1,3.06,BR,1723032849
522,port douglas,-16.4833,145.4667,21.23,88,61,2.93,AU,1723032850
523,taltal,-25.4,-70.4833,13.2,73,0,0.89,CL,1723032851
524,kolonia,50.9333,6.95,22.13,77,75,6.69,DE,1723032852
525,angaur state,6.906,134.13,29.0,76,73,4.69,PW,1723032854
526,altamirano,16.8833,-92.15,13.19,98,36,1.51,MX,1723032855
527,salekhard,66.53,66.6019,18.04,42,7,1.87,RU,1723032856
528,ambon,-3.6954,128.1814,26.6,95,40,1.54,ID,1723032669
529,klyuchi,52.2667,79.1667,23.86,62,98,3.41,RU,1723032858
530,letlhakeng,-24.0944,25.0298,27.86,17,0,3.93,BW,1723032859
531,tazacorte,28.629,-17.9293,24.54,61,40,6.17,ES,1723032860
532,mobaye,4.319,21.1786,24.97,79,100,2.86,CF,1723032861
533,bedford,52.1346,-0.4663,20.69,72,75,7.2,GB,1723032862
534,bozhou,33.8772,115.7703,28.96,79,45,1.71,CN,1723032863
535,novodvinsk,64.4165,40.8122,21.86,29,13,2.75,RU,1723032864
536,mandalgovi,45.7625,106.2708,18.27,73,100,11.5,MN,1723032865
537,acapulco de juarez,16.8634,-99.8901,26.9,83,75,0.0,MX,1723032866
538,thief river falls,48.1191,-96.1812,16.96,77,100,4.12,US,1723032867
539,inyati,-19.6756,28.8469,29.02,14,0,1.87,ZW,1723032868
540,sangola,17.4333,75.2,27.24,70,100,6.34,IN,1723032869
541,musan-up,42.2261,129.2078,20.58,92,39,1.24,KP,1723032870
542,contamana,-7.3333,-75.0167,22.53,92,20,0.66,PE,1723032871
543,antofagasta,-23.65,-70.4,12.6,72,33,3.42,CL,1723032297
544,wagar,16.1525,36.2032,28.8,55,100,1.4,SD,1723032873
545,nadi,-17.8,177.4167,17.0,82,20,0.0,FJ,1723032635
546,dryden,49.7833,-92.7503,16.16,88,100,5.14,CA,1723032876
547,itoman,26.1247,127.6694,30.43,86,75,2.57,JP,1723032877
548,roshchino,60.2519,29.6085,21.64,52,76,2.73,RU,1723032878
549,xinmin,41.9908,122.8253,24.29,94,100,2.93,CN,1723032879
550,antsohihy,-14.8796,47.9875,34.02,17,3,3.5,MG,1723032880
551,kisangani,0.5167,25.2,37.07,28,76,1.19,CD,1723032881
552,novohrad-volynskyi,50.5941,27.6165,25.44,40,11,4.85,UA,1723032883
553,ayorou,14.7308,0.9174,32.24,45,100,9.12,NE,1723032884
554,nalut,30.3333,10.85,38.0,16,0,1.07,LY,1723032885
555,jinji,23.2281,110.8261,29.4,67,8,1.91,CN,1723032886
556,akankpa,5.1264,8.1898,27.32,77,99,3.06,NG,1723032887
557,suva,-18.1416,178.4415,21.71,73,75,1.54,FJ,1723032888
558,korla,41.7597,86.1469,25.82,35,89,4.17,CN,1723032889
559,chisec,15.8167,-90.2833,23.13,94,12,1.22,GT,1723032890
560,corumba,-19.0092,-57.6533,26.95,36,20,1.54,BR,1723032743
561,launceston,-41.45,147.1667,9.89,93,75,4.12,AU,1723032892
562,bandon,51.7469,-8.7425,16.77,74,100,7.44,IE,1723032893
563,diapaga,12.0708,1.7889,26.69,75,100,6.18,BF,1723032894
564,kamaishi,39.2667,141.8833,23.46,95,44,1.24,JP,1723032895
565,vulcanesti,45.6842,28.4028,30.07,33,25,3.79,MD,1723032896
566,katsuura,35.1333,140.3,26.18,94,84,1.01,JP,1723032897
567,hovd,48.0056,91.6419,25.64,24,99,1.52,MN,1723032899
568,hays,30.0502,-98.0336,25.37,90,0,2.38,US,1723032900
569,mazagao,-0.115,-51.2894,30.03,72,7,1.39,BR,1723032901
570,savelugu,9.6244,-0.8253,30.08,57,92,4.45,GH,1723032902
571,nieuw amsterdam,5.8833,-55.0833,28.01,83,20,0.0,SR,1723032903
572,thunder bay,48.4001,-89.3168,11.99,87,75,1.54,CA,1723032904
573,portales,34.1862,-103.3344,24.55,38,0,4.03,US,1723032862
574,champerico,14.3,-91.9167,26.3,89,86,3.54,GT,1723032908
575,sola,-13.8833,167.55,24.89,68,92,10.33,VU,1723032909
576,salinopolis,-0.6136,-47.3561,27.8,76,58,4.41,BR,1723032910
577,puerto san jose,13.9256,-90.8244,24.54,90,93,3.28,GT,1723032912
578,myanaung,18.2833,95.3167,25.97,87,100,3.74,MM,1723032913
579,epernay,49.05,3.95,22.44,58,85,4.97,FR,1723032914
580,kochenevo,55.0218,82.202,22.66,75,64,5.01,RU,1723032915
